{
"type": "FeatureCollection",
"name": "centros_comerciales",
"crs": { "type": "name", "properties": { "name": "urn:ogc:def:crs:OGC:1.3:CRS84" } },
"features": [
{ "type": "Feature", "properties": { "Name": "C.C Tolón Fashion Mall" }, "geometry": { "type": "Point", "coordinates": [ -66.8609499, 10.4809862, 0.0 ] } },
{ "type": "Feature", "properties": { "Name": "C.C City Market" }, "geometry": { "type": "Point", "coordinates": [ -66.8780864, 10.494118, 0.0 ] } },
{ "type": "Feature", "properties": { "Name": "Centro Comercial Sabana Grande" }, "geometry": { "type": "Point", "coordinates": [ -66.8783816, 10.4944809, 0.0 ] } },
{ "type": "Feature", "properties": { "Name": "C.C Galerías El Recreo" }, "geometry": { "type": "Point", "coordinates": [ -66.8781692, 10.4916241, 0.0 ] } },
{ "type": "Feature", "properties": { "Name": "Centro Comercial Lord Center" }, "geometry": { "type": "Point", "coordinates": [ -66.9001808, 10.5058514, 0.0 ] } },
{ "type": "Feature", "properties": { "Name": "Centro Comercial Plaza Santa Mónica" }, "geometry": { "type": "Point", "coordinates": [ -66.8913017, 10.4718273, 0.0 ] } },
{ "type": "Feature", "properties": { "Name": "C.C Plaza" }, "geometry": { "type": "Point", "coordinates": [ -66.9052378, 10.5056909, 0.0 ] } },
{ "type": "Feature", "properties": { "Name": "C. C. Galerías Perico" }, "geometry": { "type": "Point", "coordinates": [ -66.9084507, 10.5033573, 0.0 ] } },
{ "type": "Feature", "properties": { "Name": "Galerías Avila" }, "geometry": { "type": "Point", "coordinates": [ -66.9025949, 10.5062761, 0.0 ] } },
{ "type": "Feature", "properties": { "Name": "Centro Comercial Casa Mall" }, "geometry": { "type": "Point", "coordinates": [ -66.830997, 10.4468889, 0.0 ] } },
{ "type": "Feature", "properties": { "Name": "C.C. Centro Parque Caracas" }, "geometry": { "type": "Point", "coordinates": [ -66.9004257, 10.503325, 0.0 ] } },
{ "type": "Feature", "properties": { "Name": "Centro Comercial Caracas" }, "geometry": { "type": "Point", "coordinates": [ -66.9602064, 10.4724144, 0.0 ] } },
{ "type": "Feature", "properties": { "Name": "C.C Metropolitano" }, "geometry": { "type": "Point", "coordinates": [ -66.8575551, 10.4930626, 0.0 ] } },
{ "type": "Feature", "properties": { "Name": "Centro Comercial El Recreo" }, "geometry": { "type": "Point", "coordinates": [ -66.8772488, 10.4916746, 0.0 ] } },
{ "type": "Feature", "properties": { "Name": "Centro Comercial Telares Los Ándes" }, "geometry": { "type": "Point", "coordinates": [ -66.9106436, 10.4839349, 0.0 ] } },
{ "type": "Feature", "properties": { "Name": "C.C Multiplaza Victoria" }, "geometry": { "type": "Point", "coordinates": [ -66.9093569, 10.4863319, 0.0 ] } },
{ "type": "Feature", "properties": { "Name": "C.C La Castilla" }, "geometry": { "type": "Point", "coordinates": [ -66.9042653, 10.5026284, 0.0 ] } },
{ "type": "Feature", "properties": { "Name": "Centro Comercial Liberty" }, "geometry": { "type": "Point", "coordinates": [ -66.9103418, 10.5033834, 0.0 ] } },
{ "type": "Feature", "properties": { "Name": "C.C Casa Bera" }, "geometry": { "type": "Point", "coordinates": [ -66.9040239, 10.5061887, 0.0 ] } },
{ "type": "Feature", "properties": { "Name": "C.C Candoral" }, "geometry": { "type": "Point", "coordinates": [ -66.9045841, 10.5064548, 0.0 ] } },
{ "type": "Feature", "properties": { "Name": "C.C Plaza" }, "geometry": { "type": "Point", "coordinates": [ -66.8850997, 10.5042027, 0.0 ] } },
{ "type": "Feature", "properties": { "Name": "C.C Metrocenter" }, "geometry": { "type": "Point", "coordinates": [ -66.916871, 10.5045269, 0.0 ] } },
{ "type": "Feature", "properties": { "Name": "Centro Comercial El Valle" }, "geometry": { "type": "Point", "coordinates": [ -66.9048654, 10.4673991, 0.0 ] } },
{ "type": "Feature", "properties": { "Name": "Centro Comercial la Candelaria" }, "geometry": { "type": "Point", "coordinates": [ -66.904853, 10.5046374, 0.0 ] } },
{ "type": "Feature", "properties": { "Name": "C.C Los Próceres" }, "geometry": { "type": "Point", "coordinates": [ -66.8952299, 10.4729198, 0.0 ] } },
{ "type": "Feature", "properties": { "Name": "C. C. Multiplaza Paraíso" }, "geometry": { "type": "Point", "coordinates": [ -66.9342997, 10.4856078, 0.0 ] } },
{ "type": "Feature", "properties": { "Name": "C.C Plaza Capitolio" }, "geometry": { "type": "Point", "coordinates": [ -66.9165659, 10.5051602, 0.0 ] } },
{ "type": "Feature", "properties": { "Name": "Centro Comercial Victoria" }, "geometry": { "type": "Point", "coordinates": [ -66.9093457, 10.4862481, 0.0 ] } },
{ "type": "Feature", "properties": { "Name": "Edificio Alianza" }, "geometry": { "type": "Point", "coordinates": [ -66.9063551, 10.5025487, 0.0 ] } },
{ "type": "Feature", "properties": { "Name": "Sambil La Candelaria" }, "geometry": { "type": "Point", "coordinates": [ -66.9014717, 10.5047835, 0.0 ] } },
{ "type": "Feature", "properties": { "Name": "Centro Comercial Galerias Edsam" }, "geometry": { "type": "Point", "coordinates": [ -66.912955, 10.5054398, 0.0 ] } },
{ "type": "Feature", "properties": { "Name": "centro caroni" }, "geometry": { "type": "Point", "coordinates": [ -66.8779166, 10.483534, 0.0 ] } },
{ "type": "Feature", "properties": { "Name": "C.C Sambil (Chacao)" }, "geometry": { "type": "Point", "coordinates": [ -66.8543738, 10.4895526, 0.0 ] } },
{ "type": "Feature", "properties": { "Name": "C.C Lido" }, "geometry": { "type": "Point", "coordinates": [ -66.8625516, 10.4911492, 0.0 ] } },
{ "type": "Feature", "properties": { "Name": "C.C Doral Baralt" }, "geometry": { "type": "Point", "coordinates": [ -66.919467, 10.4977616, 0.0 ] } },
{ "type": "Feature", "properties": { "Name": "Centro Comercial Safo" }, "geometry": { "type": "Point", "coordinates": [ -66.9180669, 10.5040631, 0.0 ] } },
{ "type": "Feature", "properties": { "Name": "Centro Comercial El Cementerio" }, "geometry": { "type": "Point", "coordinates": [ -66.913094, 10.483703, 0.0 ] } },
{ "type": "Feature", "properties": { "Name": "C.C Los Chaguaramos" }, "geometry": { "type": "Point", "coordinates": [ -66.8847292, 10.4861524, 0.0 ] } },
{ "type": "Feature", "properties": { "Name": "C.C Sabana Grande" }, "geometry": { "type": "Point", "coordinates": [ -66.8784462, 10.4949858, 0.0 ] } },
{ "type": "Feature", "properties": { "Name": "Centro Comercial El Gallo De Oro" }, "geometry": { "type": "Point", "coordinates": [ -66.911813, 10.5042652, 0.0 ] } },
{ "type": "Feature", "properties": { "Name": "C.C Bello Monte" }, "geometry": { "type": "Point", "coordinates": [ -66.8807388, 10.4898492, 0.0 ] } },
{ "type": "Feature", "properties": { "Name": "C.C Polo" }, "geometry": { "type": "Point", "coordinates": [ -66.8751378, 10.4858765, 0.0 ] } },
{ "type": "Feature", "properties": { "Name": "C.C Santa Mónica" }, "geometry": { "type": "Point", "coordinates": [ -66.8924185, 10.4786396, 0.0 ] } },
{ "type": "Feature", "properties": { "Name": "Torre Centrum" }, "geometry": { "type": "Point", "coordinates": [ -66.8757592, 10.4935004, 0.0 ] } },
{ "type": "Feature", "properties": { "Name": "Centro Comercial Galerías Plaza Candelaria" }, "geometry": { "type": "Point", "coordinates": [ -66.9037554, 10.5063703, 0.0 ] } },
{ "type": "Feature", "properties": { "Name": "Centro Polo" }, "geometry": { "type": "Point", "coordinates": [ -66.8749608, 10.4863287, 0.0 ] } },
{ "type": "Feature", "properties": { "Name": "BARRIO EL CERRITO" }, "geometry": { "type": "Point", "coordinates": [ -66.8640734, 10.489466, 0.0 ] } },
{ "type": "Feature", "properties": { "Name": "Centro Comercial Valle Abajo" }, "geometry": { "type": "Point", "coordinates": [ -66.8942801, 10.4815071, 0.0 ] } },
{ "type": "Feature", "properties": { "Name": "C.C. Prado de María" }, "geometry": { "type": "Point", "coordinates": [ -66.9101014, 10.482286, 0.0 ] } },
{ "type": "Feature", "properties": { "Name": "Centro Comercial 4G" }, "geometry": { "type": "Point", "coordinates": [ -66.9049304, 10.4805852, 0.0 ] } },
{ "type": "Feature", "properties": { "Name": "Centro Comercial Terras Plaza" }, "geometry": { "type": "Point", "coordinates": [ -66.871104, 10.4468437, 0.0 ] } },
{ "type": "Feature", "properties": { "Name": "C.C Galerías Edsam" }, "geometry": { "type": "Point", "coordinates": [ -66.9144811, 10.4975828, 0.0 ] } },
{ "type": "Feature", "properties": { "Name": "Parque Humboldt" }, "geometry": { "type": "Point", "coordinates": [ -66.8725841, 10.4507971, 0.0 ] } },
{ "type": "Feature", "properties": { "Name": "Centro San Ignacio" }, "geometry": { "type": "Point", "coordinates": [ -66.8565, 10.4978, 0.0 ] } },
{ "type": "Feature", "properties": { "Name": "cc manuelita saez" }, "geometry": { "type": "Point", "coordinates": [ -66.8712875, 10.4917891, 0.0 ] } },
{ "type": "Feature", "properties": { "Name": "Centro Comercial del Oeste" }, "geometry": { "type": "Point", "coordinates": [ -66.933369, 10.5149226, 0.0 ] } },
{ "type": "Feature", "properties": { "Name": "C.C Rosal Plaza" }, "geometry": { "type": "Point", "coordinates": [ -66.8682794, 10.4891069, 0.0 ] } },
{ "type": "Feature", "properties": { "Name": "Conjunto Residencial Parque Carabobo Plaza CRPCP" }, "geometry": { "type": "Point", "coordinates": [ -66.9058371, 10.4995006, 0.0 ] } },
{ "type": "Feature", "properties": { "Name": "C.C Centro Plaza" }, "geometry": { "type": "Point", "coordinates": [ -66.8456823, 10.4966438, 0.0 ] } },
{ "type": "Feature", "properties": { "Name": "Centro Comercial San Martin" }, "geometry": { "type": "Point", "coordinates": [ -66.9396979, 10.4914361, 0.0 ] } },
{ "type": "Feature", "properties": { "Name": "C. C. Galerías Prados del Este" }, "geometry": { "type": "Point", "coordinates": [ -66.8809714, 10.4496326, 0.0 ] } },
{ "type": "Feature", "properties": { "Name": "Estacionamiento Público Centro Parque Caracas" }, "geometry": { "type": "Point", "coordinates": [ -66.9004539, 10.5035465, 0.0 ] } },
{ "type": "Feature", "properties": { "Name": "C.C Pasaje Zingg" }, "geometry": { "type": "Point", "coordinates": [ -66.9139295, 10.5039437, 0.0 ] } },
{ "type": "Feature", "properties": { "Name": "Centro Comercial Teatro Ayacucho" }, "geometry": { "type": "Point", "coordinates": [ -66.9167559, 10.5055675, 0.0 ] } },
{ "type": "Feature", "properties": { "Name": "Amaliot Recuerdos con arte" }, "geometry": { "type": "Point", "coordinates": [ -66.9009608, 10.5032297, 0.0 ] } },
{ "type": "Feature", "properties": { "Name": "C.C Las Cúpulas" }, "geometry": { "type": "Point", "coordinates": [ -66.8445218, 10.5028236, 0.0 ] } },
{ "type": "Feature", "properties": { "Name": "Galerías del Pueblo" }, "geometry": { "type": "Point", "coordinates": [ -66.9338393, 10.5142375, 0.0 ] } },
{ "type": "Feature", "properties": { "Name": "Mercado Principal Del Cementerio" }, "geometry": { "type": "Point", "coordinates": [ -66.9103519, 10.4845603, 0.0 ] } },
{ "type": "Feature", "properties": { "Name": "Centro Comercial Parque Caracas" }, "geometry": { "type": "Point", "coordinates": [ -66.9007301, 10.5037021, 0.0 ] } },
{ "type": "Feature", "properties": { "Name": "Centro Perú" }, "geometry": { "type": "Point", "coordinates": [ -66.8553773, 10.4924049, 0.0 ] } },
{ "type": "Feature", "properties": { "Name": "Centro Comercial Metro Mercado La Bandera" }, "geometry": { "type": "Point", "coordinates": [ -66.9015391, 10.4786791, 0.0 ] } },
{ "type": "Feature", "properties": { "Name": "Material Medico Quirurgico en Chacaito" }, "geometry": { "type": "Point", "coordinates": [ -66.8741115, 10.493767, 0.0 ] } },
{ "type": "Feature", "properties": { "Name": "Centro Andes Bello" }, "geometry": { "type": "Point", "coordinates": [ -66.8889257, 10.5041248, 0.0 ] } },
{ "type": "Feature", "properties": { "Name": "Centro Profesional el Paraiso" }, "geometry": { "type": "Point", "coordinates": [ -66.9356954, 10.4841828, 0.0 ] } },
{ "type": "Feature", "properties": { "Name": "sede principal mpp juventud y deporte" }, "geometry": { "type": "Point", "coordinates": [ -66.9015507, 10.5080346, 0.0 ] } },
{ "type": "Feature", "properties": { "Name": "C.C Maracaibo" }, "geometry": { "type": "Point", "coordinates": [ -66.9359285, 10.4932417, 0.0 ] } },
{ "type": "Feature", "properties": { "Name": "Centro Comercial Los Samanes" }, "geometry": { "type": "Point", "coordinates": [ -66.8570738, 10.4546161, 0.0 ] } },
{ "type": "Feature", "properties": { "Name": "Adorables Mascotas" }, "geometry": { "type": "Point", "coordinates": [ -66.876373, 10.4856809, 0.0 ] } },
{ "type": "Feature", "properties": { "Name": "C.C Santa Fe" }, "geometry": { "type": "Point", "coordinates": [ -66.8713982, 10.4662049, 0.0 ] } },
{ "type": "Feature", "properties": { "Name": "Aerolineas Laser" }, "geometry": { "type": "Point", "coordinates": [ -66.8741115, 10.493767, 0.0 ] } },
{ "type": "Feature", "properties": { "Name": "Centro Comercial Euba" }, "geometry": { "type": "Point", "coordinates": [ -66.9589176, 10.4718474, 0.0 ] } },
{ "type": "Feature", "properties": { "Name": "Centro Comercial Santa Marta" }, "geometry": { "type": "Point", "coordinates": [ -66.8444656, 10.4776345, 0.0 ] } },
{ "type": "Feature", "properties": { "Name": "C.C Los Campitos" }, "geometry": { "type": "Point", "coordinates": [ -66.868439, 10.4572944, 0.0 ] } },
{ "type": "Feature", "properties": { "Name": "Centro Comercial Santa Rita" }, "geometry": { "type": "Point", "coordinates": [ -66.9394106, 10.4806546, 0.0 ] } },
{ "type": "Feature", "properties": { "Name": "C.C Mata de Coco" }, "geometry": { "type": "Point", "coordinates": [ -66.8581051, 10.4966695, 0.0 ] } },
{ "type": "Feature", "properties": { "Name": "Centro Comercial Coche" }, "geometry": { "type": "Point", "coordinates": [ -66.924473, 10.4480743, 0.0 ] } },
{ "type": "Feature", "properties": { "Name": "Mini Centro Comercial Quinta Crespo Plaza" }, "geometry": { "type": "Point", "coordinates": [ -66.9199897, 10.4972906, 0.0 ] } },
{ "type": "Feature", "properties": { "Name": "COMPUTERSHOP7351" }, "geometry": { "type": "Point", "coordinates": [ -66.8927184, 10.5041844, 0.0 ] } },
{ "type": "Feature", "properties": { "Name": "Centro Comercial El Lago" }, "geometry": { "type": "Point", "coordinates": [ -66.9480034, 10.5131332, 0.0 ] } },
{ "type": "Feature", "properties": { "Name": "C. C. La Villa" }, "geometry": { "type": "Point", "coordinates": [ -66.9561443, 10.4735556, 0.0 ] } },
{ "type": "Feature", "properties": { "Name": "Metro Mercado del Oeste" }, "geometry": { "type": "Point", "coordinates": [ -66.9484674, 10.5120739, 0.0 ] } },
{ "type": "Feature", "properties": { "Name": "Centro Comercial Macaracuay Plaza" }, "geometry": { "type": "Point", "coordinates": [ -66.819737, 10.4677553, 0.0 ] } },
{ "type": "Feature", "properties": { "Name": "Centro comercial chacaito" }, "geometry": { "type": "Point", "coordinates": [ -66.9490168, 10.4684379, 0.0 ] } },
{ "type": "Feature", "properties": { "Name": "C.C Propatria" }, "geometry": { "type": "Point", "coordinates": [ -66.9533232, 10.5040835, 0.0 ] } },
{ "type": "Feature", "properties": { "Name": "Centro Cmercial La Florida" }, "geometry": { "type": "Point", "coordinates": [ -66.8733803, 10.5013622, 0.0 ] } },
{ "type": "Feature", "properties": { "Name": "Centro comercial galerías capitolio" }, "geometry": { "type": "Point", "coordinates": [ -66.9180304, 10.5045431, 0.0 ] } },
{ "type": "Feature", "properties": { "Name": "Edificio Centr" }, "geometry": { "type": "Point", "coordinates": [ -66.9036688, 10.5060364, 0.0 ] } },
{ "type": "Feature", "properties": { "Name": "edificio paris" }, "geometry": { "type": "Point", "coordinates": [ -66.914759, 10.5079346, 0.0 ] } },
{ "type": "Feature", "properties": { "Name": "C.C Millennium" }, "geometry": { "type": "Point", "coordinates": [ -66.832742, 10.495231, 0.0 ] } },
{ "type": "Feature", "properties": { "Name": "C.C.C.Cementerio" }, "geometry": { "type": "Point", "coordinates": [ -66.9130461, 10.4837562, 0.0 ] } },
{ "type": "Feature", "properties": { "Name": "Centro Irene" }, "geometry": { "type": "Point", "coordinates": [ -66.888458, 10.48147, 0.0 ] } },
{ "type": "Feature", "properties": { "Name": "edificio oniva" }, "geometry": { "type": "Point", "coordinates": [ -66.9036063, 10.4805937, 0.0 ] } },
{ "type": "Feature", "properties": { "Name": "Centro Comercial Santa Paula" }, "geometry": { "type": "Point", "coordinates": [ -66.8336997, 10.4606023, 0.0 ] } },
{ "type": "Feature", "properties": { "Name": "Chuao Meson de Chuao" }, "geometry": { "type": "Point", "coordinates": [ -66.9036063, 10.4805937, 0.0 ] } },
{ "type": "Feature", "properties": { "Name": "Centro Comercial El Marqués" }, "geometry": { "type": "Point", "coordinates": [ -66.8031991, 10.4981849, 0.0 ] } },
{ "type": "Feature", "properties": { "Name": "Yimmy arte y manualidades" }, "geometry": { "type": "Point", "coordinates": [ -66.8474936, 10.4966581, 0.0 ] } },
{ "type": "Feature", "properties": { "Name": "Santa fe" }, "geometry": { "type": "Point", "coordinates": [ -66.8740341, 10.4869284, 0.0 ] } },
{ "type": "Feature", "properties": { "Name": "Galerías Quinta Crespo (Mercado de los Corotos)" }, "geometry": { "type": "Point", "coordinates": [ -66.9198272, 10.4940653, 0.0 ] } },
{ "type": "Feature", "properties": { "Name": "Centro Comercial Santa Sofia" }, "geometry": { "type": "Point", "coordinates": [ -66.8426231, 10.4731786, 0.0 ] } },
{ "type": "Feature", "properties": { "Name": "Centro Comercial Cassa Vers" }, "geometry": { "type": "Point", "coordinates": [ -66.9014148, 10.5057358, 0.0 ] } },
{ "type": "Feature", "properties": { "Name": "Centro Caroní" }, "geometry": { "type": "Point", "coordinates": [ -66.8756202, 10.4853558, 0.0 ] } },
{ "type": "Feature", "properties": { "Name": "C.C Automercado CADA" }, "geometry": { "type": "Point", "coordinates": [ -66.8650846, 10.4858355, 0.0 ] } },
{ "type": "Feature", "properties": { "Name": "C.C Boleíta Center" }, "geometry": { "type": "Point", "coordinates": [ -66.8228739, 10.4989728, 0.0 ] } },
{ "type": "Feature", "properties": { "Name": "caracas distrito capital" }, "geometry": { "type": "Point", "coordinates": [ -66.9261521, 10.5116793, 0.0 ] } },
{ "type": "Feature", "properties": { "Name": "Copiadora Copamil, CA" }, "geometry": { "type": "Point", "coordinates": [ -66.8872097, 10.5001866, 0.0 ] } },
{ "type": "Feature", "properties": { "Name": "C.C Líder" }, "geometry": { "type": "Point", "coordinates": [ -66.8210799, 10.4859436, 0.0 ] } },
{ "type": "Feature", "properties": { "Name": "Centro Comercial Macaracuay" }, "geometry": { "type": "Point", "coordinates": [ -66.8187824, 10.4695235, 0.0 ] } },
{ "type": "Feature", "properties": { "Name": "Centro de la Economía Popular Cipriano Castro" }, "geometry": { "type": "Point", "coordinates": [ -66.9203391, 10.494884, 0.0 ] } },
{ "type": "Feature", "properties": { "Name": "Centro Comercial Candilito" }, "geometry": { "type": "Point", "coordinates": [ -66.9051317, 10.5059944, 0.0 ] } },
{ "type": "Feature", "properties": { "Name": "Centro Comercial Súper Centro Petare" }, "geometry": { "type": "Point", "coordinates": [ -66.8077326, 10.4793747, 0.0 ] } },
{ "type": "Feature", "properties": { "Name": "Gamar Computacion PC C.A." }, "geometry": { "type": "Point", "coordinates": [ -66.9053382, 10.5052973, 0.0 ] } },
{ "type": "Feature", "properties": { "Name": "Centro Comercial Manzanares Plaza" }, "geometry": { "type": "Point", "coordinates": [ -66.88326, 10.4334608, 0.0 ] } },
{ "type": "Feature", "properties": { "Name": "Centro Comercial Plaza Broadway" }, "geometry": { "type": "Point", "coordinates": [ -66.8702572, 10.4913974, 0.0 ] } },
{ "type": "Feature", "properties": { "Name": "Merposur" }, "geometry": { "type": "Point", "coordinates": [ -66.9185249, 10.4811893, 0.0 ] } },
{ "type": "Feature", "properties": { "Name": "C.C Sambil (La Candelaria)" }, "geometry": { "type": "Point", "coordinates": [ -66.9016322, 10.504863, 0.0 ] } },
{ "type": "Feature", "properties": { "Name": "C.C Colonial" }, "geometry": { "type": "Point", "coordinates": [ -66.947704, 10.469545, 0.0 ] } },
{ "type": "Feature", "properties": { "Name": "Madera mdf caracs" }, "geometry": { "type": "Point", "coordinates": [ -66.9013611, 10.5077792, 0.0 ] } },
{ "type": "Feature", "properties": { "Name": "Centro Comercial Sama" }, "geometry": { "type": "Point", "coordinates": [ -66.953775, 10.472277, 0.0 ] } },
{ "type": "Feature", "properties": { "Name": "Mercado popular Giovanny Junior" }, "geometry": { "type": "Point", "coordinates": [ -66.9105425, 10.4858874, 0.0 ] } },
{ "type": "Feature", "properties": { "Name": "Reprocopia" }, "geometry": { "type": "Point", "coordinates": [ -66.882598, 10.4973842, 0.0 ] } },
{ "type": "Feature", "properties": { "Name": "Cyber Jakfer" }, "geometry": { "type": "Point", "coordinates": [ -66.9129355, 10.5065078, 0.0 ] } },
{ "type": "Feature", "properties": { "Name": "Centro Comercial La Vega" }, "geometry": { "type": "Point", "coordinates": [ -66.9465763, 10.47399, 0.0 ] } },
{ "type": "Feature", "properties": { "Name": "Centro Comercial Uslar" }, "geometry": { "type": "Point", "coordinates": [ -66.9488769, 10.4756479, 0.0 ] } },
{ "type": "Feature", "properties": { "Name": "Minitiendas Lecuna" }, "geometry": { "type": "Point", "coordinates": [ -66.9145931, 10.5006663, 0.0 ] } },
{ "type": "Feature", "properties": { "Name": "C.C San Luis" }, "geometry": { "type": "Point", "coordinates": [ -66.8426295, 10.4683576, 0.0 ] } },
{ "type": "Feature", "properties": { "Name": "Trabajo Estacionamiento" }, "geometry": { "type": "Point", "coordinates": [ -66.9054833, 10.5069799, 0.0 ] } },
{ "type": "Feature", "properties": { "Name": "MULTISERVICIOS ALTEK ELECTRONICA" }, "geometry": { "type": "Point", "coordinates": [ -66.9024688, 10.5108924, 0.0 ] } },
{ "type": "Feature", "properties": { "Name": "Edificio La Galeria" }, "geometry": { "type": "Point", "coordinates": [ -66.9103892, 10.5040527, 0.0 ] } },
{ "type": "Feature", "properties": { "Name": "Tienda CocoLú" }, "geometry": { "type": "Point", "coordinates": [ -66.9111197, 10.5058756, 0.0 ] } },
{ "type": "Feature", "properties": { "Name": "Centro Comercial Caricuao Plaza" }, "geometry": { "type": "Point", "coordinates": [ -67.0001973, 10.4343161, 0.0 ] } },
{ "type": "Feature", "properties": { "Name": "Minitiendas 199" }, "geometry": { "type": "Point", "coordinates": [ -66.8756434, 10.4939107, 0.0 ] } },
{ "type": "Feature", "properties": { "Name": "c.c Unicentro" }, "geometry": { "type": "Point", "coordinates": [ -66.9036063, 10.4805937, 0.0 ] } },
{ "type": "Feature", "properties": { "Name": "hightech electronica groups" }, "geometry": { "type": "Point", "coordinates": [ -66.9064432, 10.5018739, 0.0 ] } },
{ "type": "Feature", "properties": { "Name": "Minicentro Colinas" }, "geometry": { "type": "Point", "coordinates": [ -66.8802121, 10.4816835, 0.0 ] } },
{ "type": "Feature", "properties": { "Name": "Centro Comercial Plaza Prado" }, "geometry": { "type": "Point", "coordinates": [ -66.8907433, 10.4450458, 0.0 ] } },
{ "type": "Feature", "properties": { "Name": "Parque Infantil Caracas" }, "geometry": { "type": "Point", "coordinates": [ -66.89478, 10.480925, 0.0 ] } },
{ "type": "Feature", "properties": { "Name": "Centro de economia popular Juan Francisco de Leon" }, "geometry": { "type": "Point", "coordinates": [ -66.9344967, 10.493073, 0.0 ] } },
{ "type": "Feature", "properties": { "Name": "Centro Internacional de Convenciones CCN (Federacion CCN)" }, "geometry": { "type": "Point", "coordinates": [ -66.8843221, 10.4859505, 0.0 ] } },
{ "type": "Feature", "properties": { "Name": "Centro Comercial Los Jardines" }, "geometry": { "type": "Point", "coordinates": [ -66.8071667, 10.4833549, 0.0 ] } },
{ "type": "Feature", "properties": { "Name": "El Rincon_Sport" }, "geometry": { "type": "Point", "coordinates": [ -66.9052899, 10.5055479, 0.0 ] } },
{ "type": "Feature", "properties": { "Name": "Paseo El Hatillo - La Lagunita" }, "geometry": { "type": "Point", "coordinates": [ -66.8240605, 10.4236651, 0.0 ] } },
{ "type": "Feature", "properties": { "Name": "Centro Comercial Plaza Páez" }, "geometry": { "type": "Point", "coordinates": [ -66.9249568, 10.490521, 0.0 ] } },
{ "type": "Feature", "properties": { "Name": "FM CELL" }, "geometry": { "type": "Point", "coordinates": [ -66.9105511, 10.5068803, 0.0 ] } },
{ "type": "Feature", "properties": { "Name": "Centro De Copiado La Milagrosa" }, "geometry": { "type": "Point", "coordinates": [ -66.9063081, 10.5026146, 0.0 ] } },
{ "type": "Feature", "properties": { "Name": "Asoc. Cooperativa Centro de Compras Santa Rosalía" }, "geometry": { "type": "Point", "coordinates": [ -66.9121366, 10.5011286, 0.0 ] } },
{ "type": "Feature", "properties": { "Name": "Avenida Fuerzas Armadas. Socorto A Caleris. Edificio SUR Ameris" }, "geometry": { "type": "Point", "coordinates": [ -66.9103018, 10.4996122, 0.0 ] } }
]
}
